{
  "title": "台南旅遊地圖",
  "itinerary": [
    {
      "day": 1,
      "date": "2026-05-01",
      "title": "Day 1 — 國華街 & 河樂廣場",
      "weather": {
        "icon": "☁️",
        "temp": "22°C / 18°C",
        "desc": "陰天",
        "humidity": "70%",
        "wind": "北風 6m/s"
      },
      "spots": [
        {
          "id": "d1s1",
          "name": "開元紅燒土魠魚羹",
          "lat": 22.99944,
          "lng": 120.22683,
          "time": "12:00",
          "duration": 60,
          "description": "台南經典土魠魚羹",
          "tips": "中午人多，建議提早",
          "transportToNext": {
            "mode": "car",
            "duration": 15,
            "note": "🚗 前往國華街",
            "color": "#3498db"
          },
          "nearby": [
            {
              "name": "阿輝炒鱔魚",
              "lat": 22.9991,
              "lng": 120.2262,
              "type": "restaurant",
              "cuisine": "🍜 炒鱔魚",
              "price": "$120"
            },
            {
              "name": "双生綠豆沙牛奶",
              "lat": 22.9988,
              "lng": 120.2259,
              "type": "restaurant",
              "cuisine": "🥤 飲料",
              "price": "$60"
            }
          ]
        },
        {
          "id": "d1s2",
          "name": "國華街商圈（年綉花鞋 / 拍貼）",
          "lat": 22.9966,
          "lng": 120.1976,
          "time": "13:30",
          "duration": 120,
          "description": "逛街＋拍貼＋美食集中區",
          "tips": "全部用走的就好",
          "transportToNext": {
            "mode": "walk",
            "duration": 10,
            "note": "🚶 前往河樂廣場",
            "color": "#f39c12"
          },
          "nearby": [
            {
              "name": "富盛號碗粿",
              "lat": 22.9967,
              "lng": 120.1972,
              "type": "restaurant",
              "cuisine": "🍚 碗粿",
              "price": "$50"
            },
            {
              "name": "金得春捲",
              "lat": 22.9964,
              "lng": 120.1978,
              "type": "restaurant",
              "cuisine": "🌯 春捲",
              "price": "$60"
            },
            {
              "name": "蜷尾家",
              "lat": 22.997,
              "lng": 120.198,
              "type": "restaurant",
              "cuisine": "🍦 冰淇淋",
              "price": "$90"
            }
          ]
        },
        {
          "id": "d1s3",
          "name": "河樂廣場",
          "lat": 22.99431,
          "lng": 120.1949,
          "time": "18:00",
          "duration": 120,
          "description": "理想混蛋活動",
          "tips": "傍晚很漂亮",
          "transportToNext": {
            "mode": "car",
            "duration": 15,
            "note": "🚗 前往住宿",
            "color": "#3498db"
          },
          "nearby": [
            {
              "name": "Bar TCRC",
              "lat": 22.9938,
              "lng": 120.1952,
              "type": "restaurant",
              "cuisine": "🍸 酒吧",
              "price": "$300"
            }
          ]
        },
        {
          "id": "d1s4",
          "name": "悠樂旅宿",
          "lat": 22.99866,
          "lng": 120.16073,
          "time": "21:00",
          "duration": 720,
          "description": "入住安平",
          "tips": "",
          "transportToNext": null,
          "nearby": [
            {
              "name": "周氏蝦捲",
              "lat": 23.0003,
              "lng": 120.1612,
              "type": "restaurant",
              "cuisine": "🍤 蝦捲",
              "price": "$100"
            },
            {
              "name": "文章牛肉湯",
              "lat": 23.001,
              "lng": 120.1615,
              "type": "restaurant",
              "cuisine": "🍲 牛肉湯",
              "price": "$150"
            }
          ]
        }
      ]
    },
    {
      "day": 2,
      "date": "2026-05-02",
      "title": "Day 2 — 安平老街",
      "weather": {
        "icon": "☁️",
        "temp": "23°C / 17°C",
        "desc": "陰天",
        "humidity": "70%",
        "wind": "東風 5m/s"
      },
      "spots": [
        {
          "id": "d2s1",
          "name": "安平老街",
          "lat": 23.00068,
          "lng": 120.16082,
          "time": "10:00",
          "duration": 180,
          "description": "安平小吃巡禮",
          "tips": "建議空腹來",
          "transportToNext": null,
          "nearby": [
            {
              "name": "周氏蝦捲",
              "lat": 23.0003,
              "lng": 120.1612,
              "type": "restaurant",
              "cuisine": "🍤 蝦捲",
              "price": "$100"
            },
            {
              "name": "依蕾特布丁",
              "lat": 23.0012,
              "lng": 120.1605,
              "type": "restaurant",
              "cuisine": "🍮 甜點",
              "price": "$50"
            }
          ]
        }
      ]
    }
  ]
}